{
  "DZ01": { "name": "Adrar", "lat": 27.87, "lon": -0.29 },
  "DZ02": { "name": "Chlef", "lat": 36.17, "lon": 1.33 },
  "DZ03": { "name": "Laghouat", "lat": 33.81, "lon": 2.88 },
  "DZ04": { "name": "Oum El Bouaghi", "lat": 35.88, "lon": 7.12 },
  "DZ05": { "name": "Batna", "lat": 35.56, "lon": 6.18 },
  "DZ06": { "name": "Bejaia", "lat": 36.75, "lon": 5.07 },
  "DZ07": { "name": "Biskra", "lat": 34.85, "lon": 5.73 },
  "DZ08": { "name": "Bechar", "lat": 31.62, "lon": -2.22 },
  "DZ09": { "name": "Blida", "lat": 36.47, "lon": 2.83 },
  "DZ10": { "name": "Bouira", "lat": 36.38, "lon": 3.9 },
  "DZ11": { "name": "Tamanrasset", "lat": 22.79, "lon": 5.53 },
  "DZ12": { "name": "Tebessa", "lat": 35.4, "lon": 8.12 },
  "DZ13": { "name": "Tlemcen", "lat": 34.88, "lon": -1.32 },
  "DZ14": { "name": "Tiaret", "lat": 35.37, "lon": 1.32 },
  "DZ15": { "name": "Tizi Ouzou", "lat": 36.72, "lon": 4.05 },
  "DZ16": { "name": "Alger", "lat": 36.75, "lon": 3.05 },
  "DZ17": { "name": "Djelfa", "lat": 34.67, "lon": 3.25 },
  "DZ18": { "name": "Jijel", "lat": 36.82, "lon": 5.77 },
  "DZ19": { "name": "Setif", "lat": 36.19, "lon": 5.41 },
  "DZ20": { "name": "Saida", "lat": 34.83, "lon": 0.15 },
  "DZ21": { "name": "Skikda", "lat": 36.87, "lon": 6.9 },
  "DZ22": { "name": "Sidi Bel Abbes", "lat": 35.2, "lon": -0.63 },
  "DZ23": { "name": "Annaba", "lat": 36.9, "lon": 7.77 },
  "DZ24": { "name": "Guelma", "lat": 36.46, "lon": 7.43 },
  "DZ25": { "name": "Constantine", "lat": 36.37, "lon": 6.61 },
  "DZ26": { "name": "Medea", "lat": 36.27, "lon": 2.75 },
  "DZ27": { "name": "Mostaganem", "lat": 35.93, "lon": 0.09 },
  "DZ28": { "name": "M'Sila", "lat": 35.71, "lon": 4.54 },
  "DZ29": { "name": "Mascara", "lat": 35.4, "lon": 0.14 },
  "DZ30": { "name": "Ouargla", "lat": 31.95, "lon": 5.32 },
  "DZ31": { "name": "Oran", "lat": 35.69, "lon": -0.63 },
  "DZ32": { "name": "El Bayadh", "lat": 33.68, "lon": 1.02 },
  "DZ33": { "name": "Illizi", "lat": 26.5, "lon": 8.48 },
  "DZ34": { "name": "Bordj Bou Arreridj", "lat": 36.07, "lon": 4.77 },
  "DZ35": { "name": "Boumerdes", "lat": 36.76, "lon": 3.48 },
  "DZ36": { "name": "El Tarf", "lat": 36.77, "lon": 8.32 },
  "DZ37": { "name": "Tindouf", "lat": 27.67, "lon": -8.15 },
  "DZ38": { "name": "Tissemsilt", "lat": 35.61, "lon": 1.81 },
  "DZ39": { "name": "El Oued", "lat": 33.37, "lon": 6.86 },
  "DZ40": { "name": "Khenchela", "lat": 35.43, "lon": 7.15 },
  "DZ41": { "name": "Souk Ahras", "lat": 36.28, "lon": 7.95 },
  "DZ42": { "name": "Tipaza", "lat": 36.59, "lon": 2.45 },
  "DZ43": { "name": "Mila", "lat": 36.45, "lon": 6.26 },
  "DZ44": { "name": "Ain Defla", "lat": 36.26, "lon": 1.97 },
  "DZ45": { "name": "Naama", "lat": 33.27, "lon": -0.31 },
  "DZ46": { "name": "Ain Temouchent", "lat": 35.3, "lon": -1.14 },
  "DZ47": { "name": "Ghardaia", "lat": 32.49, "lon": 3.67 },
  "DZ48": { "name": "Relizane", "lat": 35.74, "lon": 0.56 },
  "DZ49": { "name": "El M'Ghair", "lat": 33.95, "lon": 5.92 },
  "DZ50": { "name": "El Menia", "lat": 30.58, "lon": 2.88 },
  "DZ51": { "name": "Ouled Djellal", "lat": 34.42, "lon": 5.07 },
  "DZ52": { "name": "Bordj Baji Mokhtar", "lat": 21.32, "lon": 0.95 },
  "DZ53": { "name": "Beni Abbes", "lat": 30.13, "lon": -2.17 },
  "DZ54": { "name": "Timimoun", "lat": 29.25, "lon": 0.23 },
  "DZ55": { "name": "Touggourt", "lat": 33.1, "lon": 6.06 },
  "DZ56": { "name": "Djanet", "lat": 24.55, "lon": 9.48 },
  "DZ57": { "name": "In Salah", "lat": 27.2, "lon": 2.46 },
  "DZ58": { "name": "In Guezzam", "lat": 19.57, "lon": 5.77 }
}
